[{"id": "9TnUll8eOc5FREIQqrcrFg", "alias": "verite-coffee-seattle", "name": "Verite Coffee", "image_url": "https://s3-media4.fl.yelpcdn.com/bphoto/SaSFeEHlltLbWDSK8Ay92A/o.jpg", "is_closed": false, "url": "https://www.yelp.com/biz/verite-coffee-seattle?adjust_creative=ViwXNW3s61I4QD_Hk-WbJQ&utm_campaign=yelp_api_v3&utm_medium=api_v3_business_search&utm_source=ViwXNW3s61I4QD_Hk-WbJQ", "review_count": 39, "categories": [{"alias": "coffee", "title": "Coffee & Tea"}, {"alias": "bakeries", "title": "Bakeries"}, {"alias": "cupcakes", "title": "Cupcakes"}], "rating": 3.5, "coordinates": {"latitude": 47.61175, "longitude": -122.28953}, "transactions": [], "price": "$", "location": {"address1": "1101 34th Ave", "address2": "", "address3": "", "city": "Seattle", "zip_code": "98122", "country": "US", "state": "WA", "display_address": ["1101 34th Ave", "Seattle, WA 98122"]}, "phone": "+12067094497", "display_phone": "(206) 709-4497", "distance": 483.9151289132242}, {"id": "yLZborRy-JRAKtTWBk9a9g", "alias": "union-coffee-and-wine-seattle", "name": "Union Coffee and Wine ", "image_url": "https://s3-media2.fl.yelpcdn.com/bphoto/99K9k7mqUWBoCPCLIzTvJQ/o.jpg", "is_closed": false, "url": "https://www.yelp.com/biz/union-coffee-and-wine-seattle?adjust_creative=ViwXNW3s61I4QD_Hk-WbJQ&utm_campaign=yelp_api_v3&utm_medium=api_v3_business_search&utm_source=ViwXNW3s61I4QD_Hk-WbJQ", "review_count": 94, "categories": [{"alias": "coffee", "title": "Coffee & Tea"}, {"alias": "wine_bars", "title": "Wine Bars"}], "rating": 4.5, "coordinates": {"latitude": 47.61274, "longitude": -122.30103}, "transactions": ["delivery"], "price": "$", "location": {"address1": "2407 E Union St", "address2": "Ste B", "address3": null, "city": "Seattle", "zip_code": "98122", "country": "US", "state": "WA", "display_address": ["2407 E Union St", "Ste B", "Seattle, WA 98122"]}, "phone": "+17066314474", "display_phone": "(706) 631-4474", "distance": 406.41569530434117}, {"id": "mUtrinuyznLic5wYc09LeA", "alias": "arosa-cafe-seattle-6", "name": "Arosa Cafe", "image_url": "https://s3-media2.fl.yelpcdn.com/bphoto/Sz1XcR-L-XYDJ8BBwdxAWQ/o.jpg", "is_closed": false, "url": "https://www.yelp.com/biz/arosa-cafe-seattle-6?adjust_creative=ViwXNW3s61I4QD_Hk-WbJQ&utm_campaign=yelp_api_v3&utm_medium=api_v3_business_search&utm_source=ViwXNW3s61I4QD_Hk-WbJQ", "review_count": 103, "categories": [{"alias": "coffee", "title": "Coffee & Tea"}, {"alias": "breakfast_brunch", "title": "Breakfast & Brunch"}, {"alias": "waffles", "title": "Waffles"}], "rating": 4.5, "coordinates": {"latitude": 47.62620255, "longitude": -122.29153942}, "transactions": ["delivery", "pickup"], "price": "$", "location": {"address1": "3121 E Madison St", "address2": "Ste 101", "address3": "", "city": "Seattle", "zip_code": "98112", "country": "US", "state": "WA", "display_address": ["3121 E Madison St", "Ste 101", "Seattle, WA 98112"]}, "phone": "+12064050605", "display_phone": "(206) 405-0605", "distance": 1490.2031353157636}, {"id": "yCLUXtS6a1xMicPSsmdTfA", "alias": "squirrel-chops-seattle", "name": "Squirrel Chops", "image_url": "https://s3-media2.fl.yelpcdn.com/bphoto/0fA2ebtcBXd5Qi6UE6iUTA/o.jpg", "is_closed": false, "url": "https://www.yelp.com/biz/squirrel-chops-seattle?adjust_creative=ViwXNW3s61I4QD_Hk-WbJQ&utm_campaign=yelp_api_v3&utm_medium=api_v3_business_search&utm_source=ViwXNW3s61I4QD_Hk-WbJQ", "review_count": 89, "categories": [{"alias": "coffee", "title": "Coffee & Tea"}], "rating": 4.5, "coordinates": {"latitude": 47.6128151, "longitude": -122.3034697}, "transactions": [], "price": "$", "location": {"address1": "2201 E Union St", "address2": "", "address3": null, "city": "Seattle", "zip_code": "98122", "country": "US", "state": "WA", "display_address": ["2201 E Union St", "Seattle, WA 98122"]}, "phone": "+12064857017", "display_phone": "(206) 485-7017", "distance": 572.7238765862401}, {"id": "Q8Nlx_FeZ4LW0kdbnHoyrw", "alias": "qed-coffee-seattle", "name": "QED Coffee", "image_url": "https://s3-media3.fl.yelpcdn.com/bphoto/HwagNIHveN-rX1YKAkVl4w/o.jpg", "is_closed": false, "url": "https://www.yelp.com/biz/qed-coffee-seattle?adjust_creative=ViwXNW3s61I4QD_Hk-WbJQ&utm_campaign=yelp_api_v3&utm_medium=api_v3_business_search&utm_source=ViwXNW3s61I4QD_Hk-WbJQ", "review_count": 104, "categories": [{"alias": "coffee", "title": "Coffee & Tea"}], "rating": 4.5, "coordinates": {"latitude": 47.5896816513796, "longitude": -122.292320034476}, "transactions": ["delivery"], "price": "$$", "location": {"address1": "1418 31st Ave S", "address2": "", "address3": "", "city": "Seattle", "zip_code": "98144", "country": "US", "state": "WA", "display_address": ["1418 31st Ave S", "Seattle, WA 98144"]}, "phone": "+12062357678", "display_phone": "(206) 235-7678", "distance": 2615.6752926861404}, {"id": "ebglfaWBLj-z7yqpG3BcsQ", "alias": "golden-wheat-bakery-seattle", "name": "Golden Wheat Bakery", "image_url": "https://s3-media1.fl.yelpcdn.com/bphoto/YasEczLIKnXZ3wc81JV2FA/o.jpg", "is_closed": false, "url": "https://www.yelp.com/biz/golden-wheat-bakery-seattle?adjust_creative=ViwXNW3s61I4QD_Hk-WbJQ&utm_campaign=yelp_api_v3&utm_medium=api_v3_business_search&utm_source=ViwXNW3s61I4QD_Hk-WbJQ", "review_count": 127, "categories": [{"alias": "bakeries", "title": "Bakeries"}, {"alias": "breakfast_brunch", "title": "Breakfast & Brunch"}], "rating": 5.0, "coordinates": {"latitude": 47.608213, "longitude": -122.294437}, "transactions": ["delivery"], "price": "$", "location": {"address1": "2908 E Cherry St", "address2": "", "address3": "", "city": "Seattle", "zip_code": "98122", "country": "US", "state": "WA", "display_address": ["2908 E Cherry St", "Seattle, WA 98122"]}, "phone": "+12063255055", "display_phone": "(206) 325-5055", "distance": 550.8906525109442}, {"id": "FVzl8rDPiTWEtrNEuCu-Xg", "alias": "storyville-coffee-company-seattle-9", "name": "Storyville Coffee Company", "image_url": "https://s3-media3.fl.yelpcdn.com/bphoto/nJgiyjMZ7sglAtc5wyKSLQ/o.jpg", "is_closed": false, "url": "https://www.yelp.com/biz/storyville-coffee-company-seattle-9?adjust_creative=ViwXNW3s61I4QD_Hk-WbJQ&utm_campaign=yelp_api_v3&utm_medium=api_v3_business_search&utm_source=ViwXNW3s61I4QD_Hk-WbJQ", "review_count": 2033, "categories": [{"alias": "coffee", "title": "Coffee & Tea"}, {"alias": "bakeries", "title": "Bakeries"}], "rating": 4.5, "coordinates": {"latitude": 47.60895949363687, "longitude": -122.34043157053927}, "transactions": ["delivery", "pickup"], "price": "$$", "location": {"address1": "94 Pike St", "address2": "Ste 34", "address3": "", "city": "Seattle", "zip_code": "98101", "country": "US", "state": "WA", "display_address": ["94 Pike St", "Ste 34", "Seattle, WA 98101"]}, "phone": "+12067805777", "display_phone": "(206) 780-5777", "distance": 3385.7347392304955}, {"id": "ZObS_CQXBicbvtGPaQv90A", "alias": "overcast-coffee-bar-seattle", "name": "Overcast Coffee Bar", "image_url": "https://s3-media4.fl.yelpcdn.com/bphoto/zkN4BG8XPWkI39FtVI6fKQ/o.jpg", "is_closed": false, "url": "https://www.yelp.com/biz/overcast-coffee-bar-seattle?adjust_creative=ViwXNW3s61I4QD_Hk-WbJQ&utm_campaign=yelp_api_v3&utm_medium=api_v3_business_search&utm_source=ViwXNW3s61I4QD_Hk-WbJQ", "review_count": 9, "categories": [{"alias": "coffee", "title": "Coffee & Tea"}], "rating": 5.0, "coordinates": {"latitude": 47.612681092953295, "longitude": -122.31877539408654}, "transactions": [], "price": "$$", "location": {"address1": "1017 E Union St", "address2": "", "address3": null, "city": "Seattle", "zip_code": "98122", "country": "US", "state": "WA", "display_address": ["1017 E Union St", "Seattle, WA 98122"]}, "phone": "+12063222220", "display_phone": "(206) 322-2220", "distance": 1731.4930072578813}, {"id": "e7uwwJKDamfG7psm5hZdtw", "alias": "good-neighbor-cafe-seattle-2", "name": "Good Neighbor Cafe", "image_url": "https://s3-media1.fl.yelpcdn.com/bphoto/_4ZQZxhKt80r_WSSV3TUoA/o.jpg", "is_closed": false, "url": "https://www.yelp.com/biz/good-neighbor-cafe-seattle-2?adjust_creative=ViwXNW3s61I4QD_Hk-WbJQ&utm_campaign=yelp_api_v3&utm_medium=api_v3_business_search&utm_source=ViwXNW3s61I4QD_Hk-WbJQ", "review_count": 43, "categories": [{"alias": "sandwiches", "title": "Sandwiches"}, {"alias": "coffee", "title": "Coffee & Tea"}, {"alias": "soup", "title": "Soup"}], "rating": 4.5, "coordinates": {"latitude": 47.60321, "longitude": -122.30742}, "transactions": ["delivery", "pickup"], "location": {"address1": "166 19th Ave", "address2": "Ste 1", "address3": "", "city": "Seattle", "zip_code": "98122", "country": "US", "state": "WA", "display_address": ["166 19th Ave", "Ste 1", "Seattle, WA 98122"]}, "phone": "+12063287002", "display_phone": "(206) 328-7002", "distance": 1405.6540430457055}, {"id": "2ZrovOWUNfzpSJlx-7DYCw", "alias": "hello-em-viet-coffee-and-roastery-seattle-2", "name": "Hello Em Viet Coffee & Roastery", "image_url": "https://s3-media2.fl.yelpcdn.com/bphoto/Wua0EAziQqoTzh0u8VzZkw/o.jpg", "is_closed": false, "url": "https://www.yelp.com/biz/hello-em-viet-coffee-and-roastery-seattle-2?adjust_creative=ViwXNW3s61I4QD_Hk-WbJQ&utm_campaign=yelp_api_v3&utm_medium=api_v3_business_search&utm_source=ViwXNW3s61I4QD_Hk-WbJQ", "review_count": 228, "categories": [{"alias": "coffeeroasteries", "title": "Coffee Roasteries"}, {"alias": "vietnamese", "title": "Vietnamese"}, {"alias": "breakfast_brunch", "title": "Breakfast & Brunch"}], "rating": 4.5, "coordinates": {"latitude": 47.59732, "longitude": -122.31544}, "transactions": [], "price": "$", "location": {"address1": "1227 S Weller St", "address2": "", "address3": null, "city": "Seattle", "zip_code": "98144", "country": "US", "state": "WA", "display_address": ["1227 S Weller St", "Seattle, WA 98144"]}, "phone": "", "display_phone": "", "distance": 2296.7775159438934}, {"id": "K-X3rRAVbeMZ0VIDWuPX_Q", "alias": "anchorhead-coffee-seattle", "name": "Anchorhead Coffee", "image_url": "https://s3-media2.fl.yelpcdn.com/bphoto/OITyX_psAil7QsbAw4YeFw/o.jpg", "is_closed": false, "url": "https://www.yelp.com/biz/anchorhead-coffee-seattle?adjust_creative=ViwXNW3s61I4QD_Hk-WbJQ&utm_campaign=yelp_api_v3&utm_medium=api_v3_business_search&utm_source=ViwXNW3s61I4QD_Hk-WbJQ", "review_count": 643, "categories": [{"alias": "coffee", "title": "Coffee & Tea"}, {"alias": "bakeries", "title": "Bakeries"}], "rating": 4.5, "coordinates": {"latitude": 47.6133808022766, "longitude": -122.334691182469}, "transactions": ["delivery"], "price": "$$", "location": {"address1": "1600 7th Ave", "address2": "Ste 105", "address3": null, "city": "Seattle", "zip_code": "98101", "country": "US", "state": "WA", "display_address": ["1600 7th Ave", "Ste 105", "Seattle, WA 98101"]}, "phone": "+12062222222", "display_phone": "(206) 222-2222", "distance": 2924.0875540638863}, {"id": "SALUHYOpT9mk_GHfGzUKXw", "alias": "temple-pastries-seattle-2", "name": "Temple Pastries", "image_url": "https://s3-media1.fl.yelpcdn.com/bphoto/Xf1Dldy7WfvsE5DN6NKtcA/o.jpg", "is_closed": false, "url": "https://www.yelp.com/biz/temple-pastries-seattle-2?adjust_creative=ViwXNW3s61I4QD_Hk-WbJQ&utm_campaign=yelp_api_v3&utm_medium=api_v3_business_search&utm_source=ViwXNW3s61I4QD_Hk-WbJQ", "review_count": 98, "categories": [{"alias": "bakeries", "title": "Bakeries"}], "rating": 4.5, "coordinates": {"latitude": 47.599309353938516, "longitude": -122.29869811917598}, "transactions": ["delivery"], "location": {"address1": "2524 S Jackson St", "address2": "", "address3": null, "city": "Seattle", "zip_code": "98144", "country": "US", "state": "WA", "display_address": ["2524 S Jackson St", "Seattle, WA 98144"]}, "phone": "+12064084131", "display_phone": "(206) 408-4131", "distance": 1549.4867377500893}, {"id": "zEy91vr2VmG3v-HQjEnzbw", "alias": "volunteer-park-cafe-and-pantry-seattle", "name": "Volunteer Park Cafe & Pantry", "image_url": "https://s3-media2.fl.yelpcdn.com/bphoto/uN-LskTFS8JN8Zs9UE3fKw/o.jpg", "is_closed": false, "url": "https://www.yelp.com/biz/volunteer-park-cafe-and-pantry-seattle?adjust_creative=ViwXNW3s61I4QD_Hk-WbJQ&utm_campaign=yelp_api_v3&utm_medium=api_v3_business_search&utm_source=ViwXNW3s61I4QD_Hk-WbJQ", "review_count": 32, "categories": [{"alias": "cafes", "title": "Cafes"}], "rating": 4.5, "coordinates": {"latitude": 47.63258868885758, "longitude": -122.31002844234855}, "transactions": [], "price": "$$", "location": {"address1": "1501 17th Ave E", "address2": "", "address3": null, "city": "Seattle", "zip_code": "98112", "country": "US", "state": "WA", "display_address": ["1501 17th Ave E", "Seattle, WA 98112"]}, "phone": "+12068226566", "display_phone": "(206) 822-6566", "distance": 2419.4910370847097}, {"id": "_TP_5eY-EgZDzq8CdFjP7g", "alias": "broadcast-coffee-roasters-seattle", "name": "Broadcast Coffee Roasters", "image_url": "https://s3-media2.fl.yelpcdn.com/bphoto/0-GwL82sZIMDvmK7wiHANw/o.jpg", "is_closed": false, "url": "https://www.yelp.com/biz/broadcast-coffee-roasters-seattle?adjust_creative=ViwXNW3s61I4QD_Hk-WbJQ&utm_campaign=yelp_api_v3&utm_medium=api_v3_business_search&utm_source=ViwXNW3s61I4QD_Hk-WbJQ", "review_count": 150, "categories": [{"alias": "coffee", "title": "Coffee & Tea"}], "rating": 4.0, "coordinates": {"latitude": 47.6019325256348, "longitude": -122.306747436523}, "transactions": ["delivery"], "price": "$", "location": {"address1": "1918 E Yesler Way", "address2": "", "address3": "", "city": "Seattle", "zip_code": "98122", "country": "US", "state": "WA", "display_address": ["1918 E Yesler Way", "Seattle, WA 98122"]}, "phone": "+12063220807", "display_phone": "(206) 322-0807", "distance": 1501.359954405504}, {"id": "h1dhP2ZRiMGE2RdpUtputg", "alias": "coffeeholic-house-seattle", "name": "Coffeeholic House", "image_url": "https://s3-media3.fl.yelpcdn.com/bphoto/Pc-QBBTBfAfRtNwfaeaD2g/o.jpg", "is_closed": false, "url": "https://www.yelp.com/biz/coffeeholic-house-seattle?adjust_creative=ViwXNW3s61I4QD_Hk-WbJQ&utm_campaign=yelp_api_v3&utm_medium=api_v3_business_search&utm_source=ViwXNW3s61I4QD_Hk-WbJQ", "review_count": 557, "categories": [{"alias": "coffee", "title": "Coffee & Tea"}], "rating": 4.5, "coordinates": {"latitude": 47.55723, "longitude": -122.28596}, "transactions": ["delivery"], "price": "$$", "location": {"address1": "3700 S Hudson St", "address2": null, "address3": "", "city": "Seattle", "zip_code": "98118", "country": "US", "state": "WA", "display_address": ["3700 S Hudson St", "Seattle, WA 98118"]}, "phone": "+12067223327", "display_phone": "(206) 722-3327", "distance": 6248.940850051564}, {"id": "fG_BWbjBpW0Ah1YJPt7EQQ", "alias": "victrola-coffee-and-art-seattle", "name": "Victrola Coffee & Art", "image_url": "https://s3-media2.fl.yelpcdn.com/bphoto/h8_msC-oBzRX6pzOSlRIrg/o.jpg", "is_closed": false, "url": "https://www.yelp.com/biz/victrola-coffee-and-art-seattle?adjust_creative=ViwXNW3s61I4QD_Hk-WbJQ&utm_campaign=yelp_api_v3&utm_medium=api_v3_business_search&utm_source=ViwXNW3s61I4QD_Hk-WbJQ", "review_count": 344, "categories": [{"alias": "coffeeroasteries", "title": "Coffee Roasteries"}], "rating": 4.0, "coordinates": {"latitude": 47.6224997681791, "longitude": -122.312783920868}, "transactions": ["delivery"], "price": "$$", "location": {"address1": "411 15th Ave E", "address2": "", "address3": "", "city": "Seattle", "zip_code": "98112", "country": "US", "state": "WA", "display_address": ["411 15th Ave E", "Seattle, WA 98112"]}, "phone": "+12063256520", "display_phone": "(206) 325-6520", "distance": 1654.1248763734222}, {"id": "MkeBBulwGTnnc_NqmF76Ng", "alias": "espresso-vivace-roasteria-seattle", "name": "Espresso Vivace Roasteria", "image_url": "https://s3-media2.fl.yelpcdn.com/bphoto/-bgXuduKakL2V46X5v7wmA/o.jpg", "is_closed": false, "url": "https://www.yelp.com/biz/espresso-vivace-roasteria-seattle?adjust_creative=ViwXNW3s61I4QD_Hk-WbJQ&utm_campaign=yelp_api_v3&utm_medium=api_v3_business_search&utm_source=ViwXNW3s61I4QD_Hk-WbJQ", "review_count": 755, "categories": [{"alias": "coffee", "title": "Coffee & Tea"}], "rating": 4.0, "coordinates": {"latitude": 47.6238354263561, "longitude": -122.320776209235}, "transactions": ["delivery"], "price": "$", "location": {"address1": "532 Broadway E", "address2": "", "address3": "", "city": "Seattle", "zip_code": "98102", "country": "US", "state": "WA", "display_address": ["532 Broadway E", "Seattle, WA 98102"]}, "phone": "+12068602722", "display_phone": "(206) 860-2722", "distance": 2227.801851088784}, {"id": "NODuSm6R6hfvoONZbrVuJQ", "alias": "url-coffee-seattle", "name": "URL Coffee", "image_url": "https://s3-media2.fl.yelpcdn.com/bphoto/SMov3kmdJnriv23iCENflg/o.jpg", "is_closed": false, "url": "https://www.yelp.com/biz/url-coffee-seattle?adjust_creative=ViwXNW3s61I4QD_Hk-WbJQ&utm_campaign=yelp_api_v3&utm_medium=api_v3_business_search&utm_source=ViwXNW3s61I4QD_Hk-WbJQ", "review_count": 27, "categories": [{"alias": "cafes", "title": "Cafes"}], "rating": 5.0, "coordinates": {"latitude": 47.60672503133874, "longitude": -122.3205224}, "transactions": ["delivery"], "location": {"address1": "524 Broadway", "address2": null, "address3": null, "city": "Seattle", "zip_code": "98122", "country": "US", "state": "WA", "display_address": ["524 Broadway", "Seattle, WA 98122"]}, "phone": "", "display_phone": "", "distance": 1992.1303524037548}, {"id": "KkDoL5MCOMAPJA4NaS-xgw", "alias": "fuel-coffee-and-books-seattle", "name": "Fuel Coffee & Books", "image_url": "https://s3-media1.fl.yelpcdn.com/bphoto/kx3cc_IWMWEwivDU6sZq0w/o.jpg", "is_closed": false, "url": "https://www.yelp.com/biz/fuel-coffee-and-books-seattle?adjust_creative=ViwXNW3s61I4QD_Hk-WbJQ&utm_campaign=yelp_api_v3&utm_medium=api_v3_business_search&utm_source=ViwXNW3s61I4QD_Hk-WbJQ", "review_count": 97, "categories": [{"alias": "coffee", "title": "Coffee & Tea"}], "rating": 4.0, "coordinates": {"latitude": 47.63967, "longitude": -122.30182}, "transactions": ["delivery"], "price": "$", "location": {"address1": "2300 24th Ave E", "address2": null, "address3": "", "city": "Seattle", "zip_code": "98112", "country": "US", "state": "WA", "display_address": ["2300 24th Ave E", "Seattle, WA 98112"]}, "phone": "+12063280700", "display_phone": "(206) 328-0700", "distance": 2988.90431649886}, {"id": "cpfool0I6kNLpIe0Su6fqw", "alias": "avole-ethiopian-coffee-seattle", "name": "Avole Ethiopian Coffee", "image_url": "https://s3-media3.fl.yelpcdn.com/bphoto/Wg18Mz7hk7acZIR1jJQoGA/o.jpg", "is_closed": false, "url": "https://www.yelp.com/biz/avole-ethiopian-coffee-seattle?adjust_creative=ViwXNW3s61I4QD_Hk-WbJQ&utm_campaign=yelp_api_v3&utm_medium=api_v3_business_search&utm_source=ViwXNW3s61I4QD_Hk-WbJQ", "review_count": 7, "categories": [{"alias": "juicebars", "title": "Juice Bars & Smoothies"}, {"alias": "coffeeroasteries", "title": "Coffee Roasteries"}, {"alias": "coffee", "title": "Coffee & Tea"}], "rating": 5.0, "coordinates": {"latitude": 47.61309227798837, "longitude": -122.3018459481764}, "transactions": [], "location": {"address1": "2330 E Union St", "address2": "", "address3": null, "city": "Seattle", "zip_code": "98122", "country": "US", "state": "WA", "display_address": ["2330 E Union St", "Seattle, WA 98122"]}, "phone": "", "display_phone": "", "distance": 461.8396597813005}]